[
    {
        "Name":"오니기리와이규동",
        "PhoneNumber":"010-0000-0000",
        "Address":"대전 유성구 대학로 291 한국과학기술원 N11카이마루 C-5동 1층",
        "latitude": 36.37391935898549,
        "longitude": 127.35968161258941
    },
    {
        "Name":"요시다",
        "PhoneNumber":"0507-1432-7338",
        "Address":"대전 유성구 어은로42번길 21-12",
        "latitude": 36.36360628999489,
        "longitude": 127.35864805648771
    },
    {
        "Name":"버기즈",
        "PhoneNumber":"0507-1329-3539",
        "Address":"대전 유성구 어은로52번길 16 1층",
        "latitude": 36.36353570109988,
        "longitude": 127.3581463318926
    },
    {
        "Name":"정통집",
        "PhoneNumber":"0507-1486-9289",
        "Address":"대전 유성구 궁동로18번길 44 정통집충남대점",
        "latitude": 36.36268846134652,
        "longitude": 127.34982764400176
    },
    {
        "Name":"누오보나폴리",
        "PhoneNumber":"042-322-9582",
        "Address":"대전 유성구 농대로 15 신협3층",
        "latitude": 36.36196944845569,
        "longitude": 127.35300268607071
    },
    {
        "Name":"일관",
        "PhoneNumber":"0507-1340-5653",
        "Address":"대전 서구 계룡로 399 1층",
        "latitude": 36.351136611991556,
        "longitude": 127.37253314772474
    },
    {
        "Name":"씨멘트",
        "PhoneNumber":"042-385-0808",
        "Address":"대전 유성구 대학로 131 1층 씨멘트 충남대점",
        "latitude": 36.361287204854875,
        "longitude": 127.34826150362842
    },
    {
        "Name":"최진엽샤브샤브",
        "PhoneNumber":"042-826-9097",
        "Address":"대전 유성구 궁동로18번길 40 2층",
        "latitude": 36.36269142354604,
        "longitude": 127.34958531615052
    },
    {
        "Name":"골목",
        "PhoneNumber":"042-861-9371",
        "Address":"대전 유성구 어은로57번길 5 1층",
        "latitude": 36.36298491328048,
        "longitude": 127.35624406986146
    },
    {
        "Name":"하레",
        "PhoneNumber":"070-8126-4139",
        "Address":"대전 유성구 어은로48번길 12 2층",
        "latitude": 36.362827121436844,
        "longitude": 127.35778096551721
    },
    {
        "Name":"맛존매콤닭갈비",
        "PhoneNumber":"0507-1423-9926",
        "Address":"대전 유성구 대학로155번길 38 1층",
        "latitude": 36.36242890253202,
        "longitude": 127.35075684614398
    },
    {
        "Name":"리코타코",
        "PhoneNumber":"0507-1469-7234",
        "Address":"대전 유성구 대학로155번길 29 101호",
        "latitude": 36.36214357641505,
        "longitude": 127.35048537119414
    },
    {
        "Name":"팬텀팬피그",
        "PhoneNumber":"0507-1464-1997",
        "Address":"대전 유성구 대학로 149 2층",
        "latitude": 36.36078194009278,
        "longitude": 127.35001130801191
    },
    {
        "Name":"구시앙",
        "PhoneNumber":"0507-1460-9117",
        "Address":"대전 유성구 어은로42번길 21-16 1층",
        "latitude": 36.363856596325306,
        "longitude": 127.3585712091301
    },
    {
        "Name":"선데이파스타",
        "PhoneNumber":"0507-1347-9174",
        "Address":"대전 중구 중앙로 134 1층",
        "latitude": 36.327924157303144,
        "longitude": 127.42466976974387
    },
    {
        "Name":"모선",
        "PhoneNumber":"0507-1344-8493",
        "Address":"대전 서구 갈마역로25번길 9-11 1층 모선식당",
        "latitude": 36.35227560850152,
        "longitude": 127.37357186756643
    },
    {
        "Name":"태평소국밥",
        "PhoneNumber":"042-525-5820",
        "Address":"대전 유성구 온천동로65번길 50",
        "latitude": 36.35747626468527,
        "longitude": 127.35022211972077
    },
    {
        "Name":"아소부",
        "PhoneNumber":"042-825-2995",
        "Address":"대전 유성구 어은로48번길 14",
        "latitude": 36.36287187918674,
        "longitude": 127.35788144968616
    },
    {
        "Name":"어은스시",
        "PhoneNumber":"042-863-5306",
        "Address":"대전 유성구 어은로48번길 9-11",
        "latitude": 36.36320749267243,
        "longitude": 127.35715317294823
    },
    {
        "Name":"웨스턴키친 마가리타",
        "PhoneNumber":"0507-1364-3330",
        "Address":"대전 유성구 어은로48번길 17 1층",
        "latitude": 36.363155436268976,
        "longitude": 127.35798581327107
    }
]